City_ID,City,Lat,Lng,Max Temp,Humidity,Cloudiness,Wind Speed,Country,Date
0,manay,7.215,126.5397,302.22,65,99,4.14,PH,2024-09-17
1,petropavlovsk-kamchatsky,53.0452,158.6483,287.48,38,20,5.0,RU,2024-09-17
2,puerto ayora,-0.7393,-90.3518,294.57,95,62,1.79,EC,2024-09-17
3,hawaiian paradise park,19.5933,-154.9731,301.89,77,100,3.09,US,2024-09-17
4,salinopolis,-0.6136,-47.3561,300.0,79,1,6.03,BR,2024-09-17
5,kachia,9.8667,7.95,294.37,93,100,0.84,NG,2024-09-17
6,blackmans bay,-43.0167,147.3167,285.78,61,98,6.47,AU,2024-09-17
7,thompson,55.7435,-97.8558,288.57,61,0,1.5,CA,2024-09-17
8,edinburgh of the seven seas,-37.0676,-12.3116,283.13,67,8,16.18,SH,2024-09-17
9,kourou,5.1552,-52.6478,299.55,81,6,4.49,GF,2024-09-17
10,grytviken,-54.2811,-36.5092,270.83,80,9,5.6,GS,2024-09-17
11,colonia,50.9333,6.95,288.66,87,20,3.09,DE,2024-09-17
12,constantia,44.1833,28.65,286.53,62,9,5.46,RO,2024-09-17
13,kuala tungkal,-0.8167,103.4667,299.09,85,100,3.09,ID,2024-09-17
14,bredasdorp,-34.5322,20.0403,281.12,89,9,1.08,ZA,2024-09-17
15,pisco,-13.7,-76.2167,289.18,82,0,6.17,PE,2024-09-17
16,avarua,-21.2078,-159.775,299.18,78,75,5.14,CK,2024-09-17
17,port-aux-francais,-49.35,70.2167,277.55,96,100,15.76,TF,2024-09-17
18,adamstown,-25.066,-130.1015,291.83,87,100,7.38,PN,2024-09-17
19,papatowai,-46.5619,169.4708,278.7,74,97,7.23,NZ,2024-09-17
20,coquimbo,-29.9533,-71.3436,287.0,87,100,3.6,CL,2024-09-17
21,cova figueira,14.8905,-24.2934,293.51,82,89,3.0,CV,2024-09-17
22,terenozek,45.05,64.9833,290.74,42,100,9.73,KZ,2024-09-17
23,holualoa,19.6228,-155.9522,301.23,84,40,4.63,US,2024-09-17
24,araxa,-19.5933,-46.9406,293.57,49,13,2.33,BR,2024-09-17
25,lichinga,-13.3128,35.2406,290.2,72,0,3.09,MZ,2024-09-17
26,serang,-6.1149,106.1502,300.29,63,100,1.4,ID,2024-09-17
27,aasiaat,68.7098,-52.8699,270.15,89,96,1.36,GL,2024-09-17
28,juchipila,21.4167,-103.1167,300.29,52,80,2.03,MX,2024-09-17
29,waitangi,-43.9535,-176.5597,286.38,92,100,2.68,NZ,2024-09-17
30,tiksi,71.6872,128.8694,274.72,96,100,3.4,RU,2024-09-17
31,hanumangarh,29.5833,74.3167,299.83,49,0,1.72,IN,2024-09-17
32,sitka,57.0531,-135.33,287.09,77,75,1.54,US,2024-09-17
33,kasserine,35.1676,8.8365,290.86,56,0,1.96,TN,2024-09-17
34,patong,7.8961,98.2966,299.83,99,100,10.96,TH,2024-09-17
35,bilibino,68.0546,166.4372,273.86,77,100,1.4,RU,2024-09-17
36,prado,-17.3411,-39.2208,297.48,78,1,5.49,BR,2024-09-17
37,ribas do rio pardo,-20.4431,-53.7592,293.68,48,1,2.73,BR,2024-09-17
38,west island,-12.1568,96.8225,299.14,65,20,7.72,CC,2024-09-17
39,la ronge,55.1001,-105.2842,290.05,48,99,1.7,CA,2024-09-17
40,san patricio,28.017,-97.5169,301.12,68,0,4.52,US,2024-09-17
41,mount gambier,-37.8333,140.7667,286.12,54,99,4.31,AU,2024-09-17
42,stanley,54.868,-1.6985,280.16,96,0,0.51,GB,2024-09-17
43,colonia menno,-22.3667,-59.8167,293.99,48,0,3.88,PY,2024-09-17
44,qingquan,30.4511,115.2559,299.51,75,98,2.46,CN,2024-09-17
45,alice springs,-23.7,133.8833,291.9,15,91,5.14,AU,2024-09-17
46,'ain deheb,34.8422,1.547,293.94,30,100,1.92,DZ,2024-09-17
47,alofi,-19.0595,-169.9187,300.09,74,100,4.12,NU,2024-09-17
48,tukzar,35.9483,66.4213,286.36,37,71,0.74,AF,2024-09-17
49,kidal,18.4411,1.4078,304.64,45,100,1.37,ML,2024-09-17
50,isafjordur,66.0755,-23.124,276.87,95,100,2.31,IS,2024-09-17
51,wajir,1.7471,40.0573,297.36,71,38,5.97,KE,2024-09-17
52,khandyga,62.6667,135.6,278.83,63,97,1.77,RU,2024-09-17
53,ushuaia,-54.8,-68.3,276.71,95,59,2.86,AR,2024-09-17
54,fort bragg,35.139,-79.006,295.27,94,100,5.14,US,2024-09-17
55,hasaki,35.7333,140.8333,299.67,78,90,2.57,JP,2024-09-17
56,luderitz,-26.6481,15.1594,284.65,86,0,7.5,NA,2024-09-17
57,badger,64.8,-147.5333,283.14,81,100,3.09,US,2024-09-17
58,ribeira grande,38.5167,-28.7,297.47,88,100,6.26,PT,2024-09-17
59,port mathurin,-19.6833,63.4167,294.73,66,46,9.54,MU,2024-09-17
60,iskateley,67.6803,53.1512,286.43,95,100,4.09,RU,2024-09-17
61,olonkinbyen,70.9221,-8.7187,273.94,78,100,0.64,SJ,2024-09-17
62,albany,42.6001,-73.9662,291.92,63,100,1.25,US,2024-09-17
63,saint-pierre,-21.3393,55.4781,292.97,64,0,3.09,RE,2024-09-17
64,ijebu-igbo,6.9798,4.0033,296.25,97,100,0.86,NG,2024-09-17
65,ilulissat,69.2167,-51.1,273.16,93,100,0.0,GL,2024-09-17
66,chonchi,-42.6128,-73.8092,279.88,91,99,1.01,CL,2024-09-17
67,yarovoye,52.9273,78.58,276.89,78,2,3.34,RU,2024-09-17
68,burang,30.25,81.1667,277.95,71,5,1.83,CN,2024-09-17
69,anadyr,64.75,177.4833,282.43,87,75,2.0,RU,2024-09-17
70,kapuskasing,49.4169,-82.4331,294.11,82,3,3.44,CA,2024-09-17
71,belmonte,-15.8631,-38.8828,296.17,84,0,3.52,BR,2024-09-17
72,ust-nera,64.5667,143.2,277.25,63,100,3.04,RU,2024-09-17
73,padang,-0.9492,100.3543,298.18,88,100,0.87,ID,2024-09-17
74,mayya,61.7333,130.2811,279.03,57,34,4.1,RU,2024-09-17
75,qarchi gak,37.04,66.7889,291.46,46,47,7.83,AF,2024-09-17
76,kahama,-3.8333,32.6,295.81,42,50,2.5,TZ,2024-09-17
77,tazacorte,28.629,-17.9293,294.69,81,75,3.09,ES,2024-09-17
78,kangasala,61.4638,24.076,287.05,99,100,1.06,FI,2024-09-17
79,remire-montjoly,4.9167,-52.2667,300.17,83,92,2.57,GF,2024-09-17
80,margaret river,-33.95,115.0667,290.1,55,0,1.25,AU,2024-09-17
81,afaahiti,-17.75,-149.2833,297.26,86,100,5.06,PF,2024-09-17
82,emerald,-23.5333,148.1667,293.9,28,100,4.78,AU,2024-09-17
83,likiep,9.8251,169.3107,301.17,78,53,3.5,MH,2024-09-17
84,valle de la pascua,9.2155,-66.0073,295.72,99,100,3.42,VE,2024-09-17
85,vila franca do campo,37.7167,-25.4333,295.38,81,72,1.92,PT,2024-09-17
86,tazovsky,67.4667,78.7,277.23,98,76,3.67,RU,2024-09-17
87,kosh-agach,50.0,88.6667,274.15,74,24,0.73,RU,2024-09-17
88,chinde,26.8212,87.7095,297.42,76,90,1.83,NP,2024-09-17
89,al burayqah,30.4062,19.5739,298.49,69,39,4.25,LY,2024-09-17
90,susanville,40.4163,-120.653,284.16,76,100,2.68,US,2024-09-17
91,kingston,17.997,-76.7936,302.68,78,99,1.05,JM,2024-09-17
92,palikir - national government center,6.9248,158.1611,301.56,79,75,2.57,FM,2024-09-17
93,mar del plata,-38.0023,-57.5575,283.76,87,0,1.34,AR,2024-09-17
94,cidreira,-30.1811,-50.2056,288.56,91,0,2.73,BR,2024-09-17
95,lukolela,-1.0605,17.1821,294.77,93,59,1.43,CD,2024-09-17
96,yellowknife,62.456,-114.3525,288.94,82,63,0.89,CA,2024-09-17
97,punta arenas,-53.15,-70.9167,279.21,81,75,10.8,CL,2024-09-17
98,coahuayana de hidalgo,18.7,-103.6583,300.54,87,100,0.18,MX,2024-09-17
99,keflavik,64.0049,-22.5624,281.39,100,75,3.09,IS,2024-09-17
100,valparaiso,-33.0393,-71.6273,284.95,93,100,3.6,CL,2024-09-17
101,seybaplaya,19.65,-90.6667,299.85,77,100,5.63,MX,2024-09-17
102,usinsk,65.9939,57.5281,286.85,93,100,4.78,RU,2024-09-17
103,guerrero negro,27.9769,-114.0611,293.72,70,0,7.29,MX,2024-09-17
104,invercargill,-46.4,168.35,278.72,75,78,4.02,NZ,2024-09-17
105,ko samui,9.5357,99.9357,300.95,79,100,9.75,TH,2024-09-17
106,kirakira,-10.4544,161.9205,301.98,78,17,1.87,SB,2024-09-17
107,greymouth,-42.4667,171.2,283.9,52,82,0.7,NZ,2024-09-17
108,lebu,-37.6167,-73.65,282.75,83,100,5.6,CL,2024-09-17
109,beira,-19.8436,34.8389,296.2,83,0,2.06,MZ,2024-09-17
110,hermanus,-34.4187,19.2345,281.93,84,81,3.51,ZA,2024-09-17
111,saipan,15.1355,145.701,304.54,74,40,5.14,MP,2024-09-17
112,iqaluit,63.7506,-68.5145,275.76,86,100,8.05,CA,2024-09-17
113,bethel,41.3712,-73.414,290.46,91,0,0.45,US,2024-09-17
114,n'zeto,-7.2312,12.8666,294.92,92,34,1.64,AO,2024-09-17
115,pacific grove,36.6177,-121.9166,290.6,88,100,3.6,US,2024-09-17
116,port elizabeth,-33.918,25.5701,287.21,96,0,0.89,ZA,2024-09-17
117,borba,-4.3878,-59.5939,303.56,35,14,1.53,BR,2024-09-17
118,igarka,67.4667,86.5833,276.86,98,66,3.51,RU,2024-09-17
119,kaffrine,14.1059,-15.5508,296.89,96,97,1.37,SN,2024-09-17
120,pont rouge,48.8833,-72.0825,291.97,67,9,2.93,CA,2024-09-17
121,cabedelo,-6.9811,-34.8339,296.52,82,0,5.18,BR,2024-09-17
122,yamada,39.4667,141.95,300.42,56,15,0.8,JP,2024-09-17
123,zhongshu,24.5167,103.7667,291.5,89,99,3.6,CN,2024-09-17
124,whitehorse,60.7161,-135.0538,282.21,70,83,7.6,CA,2024-09-17
125,paka,4.6374,103.4368,299.07,87,99,1.11,MY,2024-09-17
126,san antonio de pale,-1.4014,5.6325,297.64,86,100,6.27,GQ,2024-09-17
127,lihue,21.9789,-159.3672,301.92,72,40,6.69,US,2024-09-17
128,codajas,-3.8367,-62.0569,303.93,34,64,1.36,BR,2024-09-17
129,porto novo,6.4965,2.6036,297.81,88,100,3.1,BJ,2024-09-17
130,masterton,-40.9597,175.6575,279.08,96,100,5.35,NZ,2024-09-17
131,taoudenni,22.6783,-3.9836,308.23,22,14,4.03,ML,2024-09-17
132,sola,-13.8833,167.55,298.27,85,73,11.69,VU,2024-09-17
133,ouani,-12.1322,44.4258,297.56,77,6,2.32,KM,2024-09-17
134,yeppoon,-23.1333,150.7333,294.12,61,100,6.08,AU,2024-09-17
135,gisborne,-38.6533,178.0042,287.45,51,99,2.89,NZ,2024-09-17
136,namibe,-15.1961,12.1522,290.36,92,21,1.25,AO,2024-09-17
137,roses,42.262,3.1769,294.58,55,100,4.47,ES,2024-09-17
138,vadso,70.0744,29.7487,282.24,76,20,3.09,NO,2024-09-17
139,ust'-charyshskaya pristan',52.3934,83.6635,274.08,93,10,2.79,RU,2024-09-17
140,paulden,34.8856,-112.4682,298.4,24,0,6.71,US,2024-09-17
141,cartagena,10.3997,-75.5144,298.94,83,40,0.51,CO,2024-09-17
142,letlhakane,-21.4167,25.5833,297.49,25,30,6.48,BW,2024-09-17
143,udachny,66.4167,112.4,277.14,88,100,8.05,RU,2024-09-17
144,longyearbyen,78.2186,15.6401,281.06,76,75,2.57,SJ,2024-09-17
145,ennis,52.8436,-8.9864,287.11,82,40,3.09,IE,2024-09-17
146,berdyansk,46.7503,36.7944,293.43,52,100,11.69,UA,2024-09-17
147,georgetown,5.4112,100.3354,301.11,74,40,7.72,MY,2024-09-17
148,east london,-33.0153,27.9116,290.58,80,99,2.38,ZA,2024-09-17
149,atafu village,-8.5421,-172.5159,301.38,70,21,2.86,TK,2024-09-17
150,siniscola,40.5719,9.6922,288.53,80,0,1.75,IT,2024-09-17
151,horodnytsya,50.807,27.3168,287.85,52,11,3.49,UA,2024-09-17
152,hithadhoo,-0.6,73.0833,301.87,75,87,4.35,MV,2024-09-17
153,fale old settlement,-9.3852,-171.2468,300.8,75,34,1.64,TK,2024-09-17
154,jianshui,23.6363,102.8264,293.37,93,98,3.05,CN,2024-09-17
155,vuktyl,63.8567,57.3094,287.45,97,100,2.62,RU,2024-09-17
156,villa dolores,-31.9459,-65.1896,291.23,27,3,3.67,AR,2024-09-17
157,tamanrasset,22.785,5.5228,297.1,57,20,3.09,DZ,2024-09-17
158,luza,60.6308,47.2512,285.22,87,5,2.4,RU,2024-09-17
159,dudinka,69.4058,86.1778,274.78,94,7,2.72,RU,2024-09-17
160,antofagasta,-23.65,-70.4,287.75,80,0,1.17,CL,2024-09-17
161,sisimiut,66.9395,-53.6735,275.33,78,100,2.75,GL,2024-09-17
162,akrehamn,59.2667,5.1833,281.29,93,20,1.03,NO,2024-09-17
163,kavieng,-2.5744,150.7967,302.92,71,84,5.24,PG,2024-09-17
164,sulecin,52.4443,15.1168,287.75,73,10,2.91,PL,2024-09-17
165,hamilton,39.1834,-84.5333,297.71,50,0,0.45,US,2024-09-17
166,hede,33.7681,120.2517,302.9,81,97,6.87,CN,2024-09-17
167,dahme,51.8667,13.4333,289.1,98,44,3.5,DE,2024-09-17
168,sakrand,26.1384,68.2736,300.33,72,0,2.81,PK,2024-09-17
169,hotan,37.0997,79.9269,292.81,33,5,2.33,CN,2024-09-17
170,hovd,48.0056,91.6419,282.32,38,0,1.47,MN,2024-09-17
171,puerto natales,-51.7236,-72.4875,278.27,89,98,3.94,CL,2024-09-17
172,quellon,-43.1167,-73.6167,280.08,85,99,1.52,CL,2024-09-17
173,obo,5.3998,26.4869,294.15,95,100,0.79,CF,2024-09-17
174,kodiak,57.79,-152.4072,287.88,51,20,4.63,US,2024-09-17
175,ndelele,4.0333,14.9333,293.0,98,86,1.33,CM,2024-09-17
176,zavidovo,56.5333,36.5333,286.13,68,87,1.51,RU,2024-09-17
177,al jawf,29.5,38.75,295.02,51,0,3.5,SA,2024-09-17
178,jijona,38.5409,-0.5026,290.66,84,29,0.92,ES,2024-09-17
179,filadelfia,39.9523,-75.1638,294.15,82,100,5.66,US,2024-09-17
180,uturoa,-16.7333,-151.4333,299.11,81,99,4.17,PF,2024-09-17
181,nelson bay,-32.7167,152.15,290.43,63,0,2.68,AU,2024-09-17
182,aqadyr,48.2553,72.8483,274.64,64,14,7.19,KZ,2024-09-17
183,san jose,37.3394,-121.895,294.9,57,40,4.12,US,2024-09-17
184,pimentel,-6.8367,-79.9342,290.31,82,20,7.72,PE,2024-09-17
185,jamestown,42.097,-79.2353,292.95,55,0,1.54,US,2024-09-17
186,khorugh,37.4897,71.553,280.17,79,100,2.08,TJ,2024-09-17
187,santa terezinha,-29.9002,-50.0904,288.47,89,0,2.87,BR,2024-09-17
188,ballina,-28.8667,153.5667,291.47,58,0,4.7,AU,2024-09-17
189,salekhard,66.53,66.6019,286.96,91,100,2.5,RU,2024-09-17
190,selfoss,63.9331,-20.9971,284.29,96,100,4.51,IS,2024-09-17
191,lodja,-3.4833,23.4333,295.15,84,9,1.18,CD,2024-09-17
192,newman,37.3138,-121.0208,294.84,51,84,1.34,US,2024-09-17
193,east tamworth,-31.0894,150.9436,288.92,55,0,3.6,AU,2024-09-17
194,solnechnyy,50.7214,136.6319,292.72,39,2,2.31,RU,2024-09-17
195,veinticinco de mayo,-35.4323,-60.1727,285.92,68,100,0.89,AR,2024-09-17
196,santa marta,11.2408,-74.199,301.42,80,100,5.66,CO,2024-09-17
197,yanykurgan,43.915,67.2481,294.17,35,100,3.66,KZ,2024-09-17
198,mount isa,-20.7333,139.5,296.02,25,92,4.63,AU,2024-09-17
199,shar'ya,58.3686,45.5144,285.83,82,73,1.4,RU,2024-09-17
200,acapulco de juarez,16.8634,-99.8901,303.05,79,75,3.09,MX,2024-09-17
201,sao miguel,-5.4667,-35.3667,297.18,78,1,7.16,BR,2024-09-17
202,larroque,-33.036,-59.0013,286.75,66,36,3.86,AR,2024-09-17
203,yongchuan,29.3514,105.8947,302.2,66,1,2.55,CN,2024-09-17
204,baie-comeau,49.2168,-68.1489,286.97,82,75,4.12,CA,2024-09-17
205,kalabo,-14.97,22.6814,294.02,20,0,2.65,ZM,2024-09-17
206,hirara,24.8,125.2833,302.32,75,4,8.89,JP,2024-09-17
207,horta,38.5333,-28.6333,297.05,88,100,6.26,PT,2024-09-17
208,tynda,55.1667,124.7167,279.96,56,85,5.46,RU,2024-09-17
209,moree,-29.4667,149.85,292.01,30,0,1.18,AU,2024-09-17
210,chibougamau,49.9168,-74.3659,294.94,56,0,3.6,CA,2024-09-17
211,saint-leu,-21.15,55.2833,292.63,89,39,1.27,RE,2024-09-17
212,prineville,44.2999,-120.8345,291.54,46,0,5.66,US,2024-09-17
213,deqen,29.9618,90.7188,281.87,80,20,1.29,CN,2024-09-17
214,akbarabad,29.2464,52.7793,293.29,42,0,1.28,IR,2024-09-17
215,mount pearl,47.5166,-52.7813,290.45,86,100,3.58,CA,2024-09-17
216,conduaga,8.862,117.4893,299.75,90,100,4.75,PH,2024-09-17
217,qaqortoq,60.7167,-46.0333,277.63,86,100,0.85,GL,2024-09-17
218,san martin,-33.081,-68.4681,293.96,21,83,10.95,AR,2024-09-17
219,talnakh,69.4865,88.3972,275.42,96,43,2.68,RU,2024-09-17
220,ozerne,50.1782,28.7338,287.97,47,0,4.15,UA,2024-09-17
221,chokwe,-24.5333,32.9833,295.8,92,58,3.5,MZ,2024-09-17
222,wailua homesteads,22.0669,-159.378,301.59,77,40,6.69,US,2024-09-17
223,bayeux,-7.125,-34.9322,296.5,88,40,2.06,BR,2024-09-17
224,saguenay,48.4168,-71.0657,295.61,69,20,3.09,CA,2024-09-17
225,armacao de buzios,-22.7469,-41.8817,294.34,87,100,8.09,BR,2024-09-17
226,boali,4.8005,18.1275,294.52,90,59,0.41,CF,2024-09-17
227,puerto palomas,31.7667,-107.6167,300.45,44,89,2.85,MX,2024-09-17
228,prince rupert,54.3161,-130.3201,287.2,100,100,2.57,CA,2024-09-17
229,lautoka,-17.6167,177.4667,298.07,78,75,5.14,FJ,2024-09-17
230,santa elena,-2.2333,-80.85,293.9,83,100,5.18,EC,2024-09-17
231,revelganj,25.7833,84.6667,298.79,90,100,6.24,IN,2024-09-17
232,tura,25.5198,90.2201,298.18,86,100,1.25,IN,2024-09-17
233,ancud,-41.8697,-73.8203,279.93,81,43,2.05,CL,2024-09-17
234,lerwick,60.1545,-1.1494,285.03,89,100,8.25,GB,2024-09-17
235,anloga,5.7947,0.8973,298.07,88,100,6.45,GH,2024-09-17
236,sinabang,2.4803,96.3801,298.31,90,100,2.19,ID,2024-09-17
237,bereznik,62.8551,42.7072,282.81,93,90,1.68,RU,2024-09-17
238,vila velha,-20.3297,-40.2925,297.56,85,20,4.47,BR,2024-09-17
239,nova sintra,14.8667,-24.7167,299.45,78,77,4.52,CV,2024-09-17
240,shendi,16.6915,33.4341,302.53,49,40,5.29,SD,2024-09-17
241,south venice,27.0531,-82.4243,301.47,81,100,2.88,US,2024-09-17
242,haiku-pauwela,20.9219,-156.3051,302.74,77,45,12.52,US,2024-09-17
243,vilyuchinsk,52.9306,158.4028,288.3,57,100,4.5,RU,2024-09-17
244,touros,-5.1989,-35.4608,297.68,77,0,6.77,BR,2024-09-17
245,asau,46.4333,26.4,284.68,96,0,2.23,RO,2024-09-17
246,yeed,4.55,43.0333,297.35,71,91,6.7,SO,2024-09-17
247,tralee,52.2704,-9.7026,288.93,85,100,1.72,IE,2024-09-17
248,aydincik,36.1437,33.3202,297.19,74,36,4.62,TR,2024-09-17
249,castelbuono,37.932,14.0886,291.27,72,97,2.04,IT,2024-09-17
250,plastun,44.7561,136.2939,294.83,50,0,3.27,RU,2024-09-17
251,kargopol',61.5071,38.9456,284.52,80,42,0.82,RU,2024-09-17
252,kerben,40.2951,72.1863,289.44,32,98,2.58,KG,2024-09-17
253,kasongo,-4.45,26.6667,296.75,56,90,1.67,CD,2024-09-17
254,cooma,-36.2333,149.1333,286.99,40,14,1.51,AU,2024-09-17
255,mweka,-4.85,21.5667,294.84,84,27,0.94,CD,2024-09-17
256,erenhot,43.6475,111.9767,289.38,43,100,1.23,CN,2024-09-17
257,mumbwa,-14.9783,27.0619,293.51,29,0,2.41,ZM,2024-09-17
258,lethem,3.3803,-59.7968,301.21,58,0,1.83,GY,2024-09-17
259,gavrilov-yam,57.3018,39.8533,285.74,87,13,1.49,RU,2024-09-17
260,nadym,65.5333,72.5167,283.98,91,100,2.26,RU,2024-09-17
261,palmer,42.1584,-72.3287,290.5,80,40,0.0,US,2024-09-17
262,joshua tree,34.1347,-116.3131,293.89,47,0,7.15,US,2024-09-17
263,pyay,18.8167,95.2167,298.67,91,87,0.44,MM,2024-09-17
264,bossangoa,6.4926,17.4552,294.13,98,55,1.36,CF,2024-09-17
265,new norfolk,-42.7826,147.0587,286.44,76,100,4.65,AU,2024-09-17
266,loyew,51.9458,30.7953,288.24,54,4,3.64,BY,2024-09-17
267,fisterra,42.9049,-9.2629,292.81,51,26,9.5,ES,2024-09-17
268,tevriz,57.509,72.4042,276.36,85,3,1.47,RU,2024-09-17
269,zhigalovo,54.8097,105.1578,276.38,74,30,1.14,RU,2024-09-17
270,howard springs,-12.497,131.047,296.1,98,87,5.16,AU,2024-09-17
271,midvagur,62.0511,-7.1939,284.61,100,100,6.69,FO,2024-09-17
272,kone,-21.0595,164.8658,298.1,38,8,6.83,NC,2024-09-17
273,xining,36.6167,101.7667,288.35,83,98,0.36,CN,2024-09-17
274,sarupathar,26.1984,93.8094,299.18,90,81,0.08,IN,2024-09-17
275,enriquillo,17.9,-71.2333,298.91,86,100,4.6,DO,2024-09-17
276,weno,7.4515,151.8468,304.12,84,100,4.12,FM,2024-09-17
277,qalat,32.1058,66.9083,291.5,32,0,1.97,AF,2024-09-17
278,recife,-8.0539,-34.8811,299.17,73,40,6.17,BR,2024-09-17
279,bredy,52.4153,60.3411,278.96,69,13,4.33,RU,2024-09-17
280,kununurra,-15.7667,128.7333,294.14,60,100,9.77,AU,2024-09-17
281,gilgit,35.9221,74.3087,292.35,39,100,2.09,PK,2024-09-17
282,collie,-33.3667,116.15,291.13,36,0,1.88,AU,2024-09-17
283,barcelos,41.5388,-8.6151,294.07,30,8,4.58,PT,2024-09-17
284,san angelo,31.4638,-100.437,304.56,46,0,3.13,US,2024-09-17
285,balkanabat,39.5108,54.3671,294.17,26,24,1.87,TM,2024-09-17
286,riva del garda,45.8858,10.8412,286.93,74,100,3.65,IT,2024-09-17
287,casino,-28.8667,153.05,294.38,36,0,1.77,AU,2024-09-17
288,sunchales,-30.944,-61.5615,288.84,49,0,4.94,AR,2024-09-17
289,mossel bay,-34.1831,22.146,286.11,76,0,2.2,ZA,2024-09-17
290,nabire,-3.3667,135.4833,304.26,66,90,1.44,ID,2024-09-17
291,monroe,43.1501,-77.6831,293.72,81,100,2.23,US,2024-09-17
292,xunchang,28.4543,104.715,297.04,85,54,1.0,CN,2024-09-17
293,gadzhiyevo,69.2551,33.3362,281.58,86,100,4.41,RU,2024-09-17
294,lupane,-18.9315,27.807,291.77,31,0,2.7,ZW,2024-09-17
295,langepas,61.2544,75.2124,280.98,64,98,4.54,RU,2024-09-17
296,saint-paul,-21.0096,55.2707,294.56,74,68,1.16,RE,2024-09-17
297,cabo san lucas,22.8909,-109.9124,299.32,71,0,5.81,MX,2024-09-17
298,brookings,44.3114,-96.7984,297.62,74,0,4.63,US,2024-09-17
299,chaykovskiy,56.7686,54.1148,284.93,93,31,1.15,RU,2024-09-17
300,st. john's,47.5649,-52.7093,290.91,84,100,4.47,CA,2024-09-17
301,cockburn town,21.4612,-71.1419,302.37,80,100,9.01,TC,2024-09-17
302,howrah,22.5892,88.3103,301.15,94,40,2.06,IN,2024-09-17
303,klyuchi,52.2667,79.1667,276.8,80,8,3.57,RU,2024-09-17
304,tolanaro,-25.0319,46.9987,292.19,94,0,1.03,MG,2024-09-17
305,la passe,45.5549,-0.8967,286.59,81,2,4.42,FR,2024-09-17
306,inhambane,-23.865,35.3833,296.15,96,27,1.59,MZ,2024-09-17
307,daru,-9.0763,143.2092,298.35,88,100,8.57,PG,2024-09-17
308,sao paulo de olivenca,-3.3783,-68.8725,297.54,91,94,1.35,BR,2024-09-17
309,chania,35.5122,24.0156,306.75,77,20,2.06,GR,2024-09-17
310,tadine,-21.55,167.8833,295.49,47,73,7.56,NC,2024-09-17
311,saint-philippe,-21.3585,55.7679,293.89,79,66,5.43,RE,2024-09-17
312,nguti,5.3299,9.4185,295.59,97,100,0.93,CM,2024-09-17
313,kitui,-1.367,38.0106,289.04,92,21,2.4,KE,2024-09-17
314,nuuk,64.1835,-51.7216,274.49,100,100,3.09,GL,2024-09-17
315,mankono,8.0586,-6.1897,295.99,91,30,0.83,CI,2024-09-17
316,usogorsk,63.4106,48.6872,286.3,86,5,2.68,RU,2024-09-17
317,lockwood,45.8191,-108.4149,298.38,43,40,3.6,US,2024-09-17
318,kiranur,10.5699,78.7868,300.99,63,42,6.02,IN,2024-09-17
319,hilo,19.7297,-155.09,302.01,80,100,3.09,US,2024-09-17
320,port alfred,-33.5906,26.891,287.69,91,53,1.33,ZA,2024-09-17
321,suva,-18.1416,178.4415,294.86,100,75,4.63,FJ,2024-09-17
322,antsiranana,-12.2787,49.2917,294.71,75,0,7.28,MG,2024-09-17
323,goundam,16.4145,-3.6708,304.69,52,97,4.59,ML,2024-09-17
324,bennington,42.8781,-73.1968,291.21,83,100,2.57,US,2024-09-17
325,auki,-8.7676,160.7034,303.92,63,2,3.11,SB,2024-09-17
326,puerto bolivar,-3.2667,-79.9833,294.95,86,10,1.68,EC,2024-09-17
327,lata,40.1629,-8.3327,292.87,47,0,2.74,PT,2024-09-17
328,ulsteinvik,62.3432,5.8487,286.9,79,100,0.45,NO,2024-09-17
329,utrik,11.2278,169.8474,301.32,76,76,4.03,MH,2024-09-17
330,ma'an,26.9775,110.7211,297.78,84,100,0.64,CN,2024-09-17
331,ibadan,7.3878,3.8964,296.09,97,100,1.29,NG,2024-09-17
332,oebisfelde,52.4333,10.9833,289.29,59,73,2.4,DE,2024-09-17
333,tanjung pandan,-2.75,107.65,302.25,61,100,4.09,ID,2024-09-17
334,college,64.8569,-147.8028,283.19,78,75,2.57,US,2024-09-17
335,lebyazh'ye,55.2689,66.4947,278.52,75,0,0.49,RU,2024-09-17
336,vytegra,61.0064,36.4481,286.7,88,93,1.49,RU,2024-09-17
337,cox's bazar,21.4532,91.9798,299.56,87,78,2.59,BD,2024-09-17
338,yaren,-0.5472,166.916,301.5,69,100,3.04,NR,2024-09-17
339,geraldton,-28.7667,114.6,292.38,42,0,6.17,AU,2024-09-17
340,forde,61.4522,5.8572,283.21,100,100,1.03,NO,2024-09-17
341,porto de moz,-1.7483,-52.2383,300.18,50,5,1.74,BR,2024-09-17
342,taro,-8.3862,115.28,297.77,56,69,2.01,ID,2024-09-17
343,bridgewater,44.3835,-64.5155,290.97,74,0,3.6,CA,2024-09-17
344,mananjary,-21.2167,48.3333,291.16,86,25,3.01,MG,2024-09-17
345,anse-bertrand,16.4721,-61.5078,300.05,71,11,8.08,GP,2024-09-17
346,thunder bay,48.4001,-89.3168,294.1,88,75,1.03,CA,2024-09-17
347,lorengau,-2.0226,147.2712,303.23,70,71,4.25,PG,2024-09-17
348,batang,-6.4846,110.7083,300.85,55,100,4.66,ID,2024-09-17
349,baruun-urt,46.6806,113.2792,287.94,37,100,2.55,MN,2024-09-17
350,bakhmach,51.1808,32.7569,288.72,52,8,4.25,UA,2024-09-17
351,al ghayzah,16.2079,52.176,297.6,84,27,1.38,YE,2024-09-17
352,mao,39.8885,4.2658,293.46,52,20,9.26,ES,2024-09-17
353,roma,43.2128,-75.4557,293.91,82,0,0.0,US,2024-09-17
354,snyder,32.7179,-100.9176,303.34,32,0,3.09,US,2024-09-17
355,aykhal,66.0,111.5,274.91,98,100,5.85,RU,2024-09-17
356,port lincoln,-34.7333,135.8667,287.67,54,0,3.08,AU,2024-09-17
357,oroqen zizhiqi,50.5667,123.7167,288.82,33,0,3.13,CN,2024-09-17
358,tomatlan,19.9333,-105.25,299.13,85,100,1.47,MX,2024-09-17
359,sandnessjoen,66.0217,12.6316,285.22,76,100,10.03,NO,2024-09-17
360,carnarvon,-24.8667,113.6333,297.55,31,0,9.36,AU,2024-09-17
361,egilsstadir,65.2653,-14.3948,282.1,81,100,3.09,IS,2024-09-17
362,sliven,42.6858,26.3292,288.35,77,38,2.23,BG,2024-09-17
363,juneau,58.3019,-134.4197,285.6,76,75,3.6,US,2024-09-17
364,zhezqazghan,47.7833,67.7667,279.47,52,0,11.0,KZ,2024-09-17
365,sao jose da coroa grande,-8.8978,-35.1478,297.01,77,15,4.53,BR,2024-09-17
366,dunedin,-45.8742,170.5036,276.37,93,82,4.47,NZ,2024-09-17
367,camocim,-2.9022,-40.8411,298.59,80,0,8.25,BR,2024-09-17
368,akureyri,65.6835,-18.0878,280.11,93,100,1.03,IS,2024-09-17
369,miki,34.8,134.9833,302.91,61,52,2.43,JP,2024-09-17
370,medina,24.4686,39.6142,304.39,19,0,1.03,SA,2024-09-17
371,cestos city,5.46,-9.5828,298.32,88,69,3.18,LR,2024-09-17
372,bondo,3.8146,23.6866,292.96,97,80,0.25,CD,2024-09-17
373,talara,-4.5772,-81.2719,290.57,94,0,6.17,PE,2024-09-17
374,puerto maldonado,-12.6,-69.1833,298.56,44,5,0.71,PE,2024-09-17
375,amuntai,-2.4177,115.2494,302.24,59,89,0.93,ID,2024-09-17
376,altai,46.3722,96.2583,283.08,26,0,4.59,MN,2024-09-17
377,steinkjer,64.193,11.3851,282.02,94,100,1.36,NO,2024-09-17
378,axim,4.8699,-2.2405,296.52,92,0,2.67,GH,2024-09-17
379,aras-asan,8.8908,126.3033,302.11,68,95,3.47,PH,2024-09-17
380,bamboo flat,11.7,92.7167,300.2,94,75,2.57,IN,2024-09-17
381,north bend,43.4065,-124.2243,293.29,82,100,6.17,US,2024-09-17
382,limon,10.0,-83.0333,301.67,77,100,0.17,CR,2024-09-17
383,waitara,-38.925,174.25,282.59,50,100,10.68,NZ,2024-09-17
384,cabugao,17.7931,120.4578,298.4,89,100,1.71,PH,2024-09-17
385,figuig (centre),32.1089,-1.2286,294.31,60,72,4.37,MA,2024-09-17
386,gadhada,21.9667,71.5667,296.71,81,25,3.69,IN,2024-09-17
387,taltal,-25.4,-70.4833,286.55,92,44,1.63,CL,2024-09-17
388,ma'rib,15.4591,45.3253,299.76,16,80,2.06,YE,2024-09-17
389,chernyshevskiy,63.0128,112.4714,275.48,74,100,5.22,RU,2024-09-17
390,sheringham,52.9408,1.2093,285.79,80,16,4.8,GB,2024-09-17
391,gunnedah,-30.9833,150.25,291.1,41,0,3.18,AU,2024-09-17
392,huron,41.1501,-82.5499,292.4,72,28,3.35,US,2024-09-17
393,byron bay,-28.65,153.6167,292.26,53,0,4.33,AU,2024-09-17
394,kelapa sawit,1.6698,103.5327,301.21,83,20,1.54,MY,2024-09-17
395,neryungri,56.6709,124.6491,274.72,88,100,5.27,RU,2024-09-17
396,merizo village,13.2658,144.6691,302.58,86,100,3.91,GU,2024-09-17
397,severo-yeniseyskiy,60.3725,93.0408,274.31,92,100,1.98,RU,2024-09-17
398,kikinda,45.8297,20.4653,285.08,86,100,1.93,RS,2024-09-17
399,grande prairie,55.1667,-118.8027,291.75,40,11,5.21,CA,2024-09-17
400,kruisfontein,-34.0033,24.7314,282.45,87,0,1.4,ZA,2024-09-17
401,pyin oo lwin,22.0333,96.4667,294.28,89,16,0.46,MM,2024-09-17
402,nar'yan-mar,67.6713,53.087,286.39,95,100,4.07,RU,2024-09-17
403,guangyuan,32.442,105.823,299.51,74,36,1.29,CN,2024-09-17
404,mukalla,14.5425,49.1242,299.08,88,37,3.53,YE,2024-09-17
405,vorkuta,67.5,64.0,285.75,99,100,3.2,RU,2024-09-17
406,paramonga,-10.6667,-77.8333,289.85,86,9,3.41,PE,2024-09-17
407,mana,5.6592,-53.7767,299.77,83,0,6.15,GF,2024-09-17
408,cameron park,38.6688,-120.9872,293.55,49,79,0.89,US,2024-09-17
409,freetown,8.484,-13.2299,297.98,86,53,2.04,SL,2024-09-17
410,moranbah,-22.0016,148.0466,297.17,33,100,8.55,AU,2024-09-17
411,altar,30.7,-111.8167,305.05,44,25,9.17,MX,2024-09-17
412,el calafate,-50.3408,-72.2768,277.31,88,26,2.67,AR,2024-09-17
413,wakkanai,45.4094,141.6739,294.14,73,40,11.83,JP,2024-09-17
414,krasnoyarsk,56.0097,92.7917,275.37,85,100,1.09,RU,2024-09-17
415,waslala,13.2333,-85.3833,297.81,97,89,0.66,NI,2024-09-17
416,bratslav,48.8226,28.9407,289.86,43,100,5.17,UA,2024-09-17
417,indianola,41.3581,-93.5574,299.04,71,100,0.89,US,2024-09-17
418,castillos,-34.1667,-53.8333,284.72,80,0,2.06,UY,2024-09-17
419,undurkhaan,47.3194,110.6556,287.31,42,0,2.78,MN,2024-09-17
420,yuzhno-kurilsk,44.0306,145.8556,290.05,91,100,6.42,RU,2024-09-17
421,shimoda,34.6667,138.95,301.24,75,18,1.57,JP,2024-09-17
422,morondava,-20.2833,44.2833,297.04,83,11,2.48,MG,2024-09-17
423,sao joao da barra,-21.6403,-41.0511,296.69,86,100,4.94,BR,2024-09-17
424,wanning,18.8003,110.3967,300.87,83,99,2.88,CN,2024-09-17
425,ibarreta,-25.2144,-59.8585,291.26,38,0,2.62,AR,2024-09-17
426,fengkou,30.0833,113.2667,301.48,63,99,5.36,CN,2024-09-17
427,ladario,-19.0047,-57.6017,296.88,47,11,1.01,BR,2024-09-17
428,lompoc,34.6391,-120.4579,292.05,70,40,6.17,US,2024-09-17
429,pierre,44.3683,-100.351,300.66,47,0,5.66,US,2024-09-17
430,slidell,30.2752,-89.7812,300.39,78,0,0.0,US,2024-09-17
431,papao,-17.75,-149.55,299.97,82,100,4.25,PF,2024-09-17
432,belfast,54.5833,-5.9333,288.48,84,100,2.06,GB,2024-09-17
433,broken hill,-31.95,141.4333,288.43,34,0,1.73,AU,2024-09-17
434,murghob,38.1702,73.9667,277.26,57,100,2.44,TJ,2024-09-17
435,hadibu,12.65,54.0333,298.34,84,31,6.16,YE,2024-09-17
436,sao vicente,-23.9631,-46.3919,289.81,26,100,2.4,BR,2024-09-17
437,kanker,20.2719,81.4931,295.92,93,100,4.18,IN,2024-09-17
438,nagqu,31.5,92.0,278.02,75,2,1.41,CN,2024-09-17
439,forster,-32.1667,152.5167,292.8,65,1,3.3,AU,2024-09-17
440,nizhniy odes,63.6445,54.856,287.16,97,96,2.29,RU,2024-09-17
441,mahina,-17.5065,-149.489,300.02,83,41,4.63,PF,2024-09-17
442,boldumsaz,42.1282,59.671,288.87,41,0,4.63,TM,2024-09-17
443,bichura,50.5881,107.6022,282.46,77,0,2.26,RU,2024-09-17
444,leer,53.2316,7.461,287.56,94,6,3.03,DE,2024-09-17
445,cam ranh,11.9214,109.1591,301.13,83,75,1.54,VN,2024-09-17
446,saint johns,29.8961,-81.4165,297.54,81,100,3.6,US,2024-09-17
447,queenstown,-31.8976,26.8753,283.74,89,66,2.11,ZA,2024-09-17
448,rantepao,-2.9701,119.8978,298.38,63,23,1.18,ID,2024-09-17
449,fasa,28.9383,53.6482,290.73,52,0,0.0,IR,2024-09-17
450,westport,41.1415,-73.3579,292.15,84,0,2.06,US,2024-09-17
451,puerto lempira,15.2667,-83.7667,300.74,85,100,3.04,HN,2024-09-17
452,mamuju,-2.6748,118.8885,302.62,55,17,0.59,ID,2024-09-17
453,rajo khanani,24.9841,68.8536,297.64,83,0,4.41,PK,2024-09-17
454,enewetak,11.3474,162.3373,301.96,75,90,5.19,MH,2024-09-17
455,labytnangi,66.6572,66.4183,287.04,91,100,2.02,RU,2024-09-17
456,kathmandu,27.7167,85.3167,294.27,100,75,1.03,NP,2024-09-17
457,al khawr,25.7667,51.3167,301.35,47,0,0.44,QA,2024-09-17
458,ostrov,57.3439,28.3537,286.09,68,13,1.49,RU,2024-09-17
459,groningen,53.25,6.75,288.72,91,100,2.57,NL,2024-09-17
460,fortuna,40.5982,-124.1573,289.78,86,20,5.66,US,2024-09-17
461,mbala,-8.8402,31.3659,289.86,37,40,2.8,ZM,2024-09-17
462,quelimane,-17.8786,36.8883,298.12,78,0,3.09,MZ,2024-09-17
463,makubetsu,45.3714,141.8211,293.99,73,40,11.83,JP,2024-09-17
464,obala,4.1667,11.5333,294.01,98,99,2.34,CM,2024-09-17
465,tete,-16.1564,33.5867,298.12,29,0,1.54,MZ,2024-09-17
466,dordrecht,51.81,4.6736,287.58,93,0,0.89,NL,2024-09-17
467,nadi,-17.8,177.4167,298.15,78,75,5.14,FJ,2024-09-17
468,praia,14.9215,-23.5087,299.45,73,40,2.57,CV,2024-09-17
469,akdagmadeni,39.6603,35.8836,286.17,86,9,1.92,TR,2024-09-17
470,piti village,13.4626,144.6933,304.18,85,100,4.42,GU,2024-09-17
471,katsuura,35.1333,140.3,301.11,76,80,4.21,JP,2024-09-17
472,lerici,44.0759,9.9112,292.51,54,99,3.7,IT,2024-09-17
473,pauini,-7.7136,-66.9764,302.11,40,40,1.1,BR,2024-09-17
474,kalkaman,51.9525,76.0211,281.62,54,100,3.02,KZ,2024-09-17
475,labasa,-16.4167,179.3833,301.83,64,89,3.31,FJ,2024-09-17
476,myrina,39.8797,25.0742,288.73,77,0,0.0,GR,2024-09-17
477,crane,31.3974,-102.3501,303.0,41,100,6.6,US,2024-09-17
478,hami,42.8,93.45,295.37,17,0,1.66,CN,2024-09-17
479,yangshuo,24.7808,110.4897,299.04,85,100,1.88,CN,2024-09-17
480,cascais,38.6979,-9.4215,297.35,51,0,1.71,PT,2024-09-17
481,beerwah,-26.85,152.9667,295.21,100,98,2.68,AU,2024-09-17
482,rivne,50.6231,26.2274,287.77,51,74,4.28,UA,2024-09-17
483,umluj,25.0213,37.2685,302.16,66,4,2.82,SA,2024-09-17
484,acarau,-2.8856,-40.12,298.52,83,1,8.31,BR,2024-09-17
485,namsos,64.4662,11.4957,284.1,87,100,1.54,NO,2024-09-17
486,antonio enes,-16.2325,39.9086,295.54,87,0,3.42,MZ,2024-09-17
487,arraial do cabo,-22.9661,-42.0278,294.83,89,100,9.31,BR,2024-09-17
488,grantsville,40.5999,-112.4644,298.31,21,75,4.12,US,2024-09-17
489,charcas,23.1333,-101.1167,294.36,68,88,3.55,MX,2024-09-17
490,kenai,60.5544,-151.2583,288.2,68,0,8.75,US,2024-09-17
491,ambovombe,-25.1667,46.0833,292.89,88,89,1.82,MG,2024-09-17
492,trondheim,63.4305,10.3951,284.18,94,100,1.26,NO,2024-09-17
493,victoria falls,-17.9235,25.843,294.98,27,0,1.99,ZW,2024-09-17
494,maribo,54.7766,11.5002,287.01,87,0,4.44,DK,2024-09-17
495,magadan,59.5667,150.8,278.59,82,91,1.19,RU,2024-09-17
496,northam,51.0333,-4.2167,285.83,81,20,2.29,GB,2024-09-17
497,saldanha,-33.0117,17.9442,283.18,85,4,7.12,ZA,2024-09-17
498,jerantut,3.936,102.3626,298.06,94,89,0.33,MY,2024-09-17
499,pervomayskoye,43.919,46.7102,292.38,57,45,6.35,RU,2024-09-17
500,yambio,4.5721,28.3955,293.07,97,100,0.76,SS,2024-09-17
501,manakara,-22.1333,48.0167,291.08,86,9,3.22,MG,2024-09-17
502,vorgashor,67.5833,63.95,285.5,98,100,3.11,RU,2024-09-17
503,aripuana,-9.1667,-60.6333,301.56,35,5,1.26,BR,2024-09-17
504,dergachi,51.2328,48.7659,291.3,49,96,5.01,RU,2024-09-17
505,vidalia,32.2177,-82.4135,294.12,78,0,2.06,US,2024-09-17
506,polyarnyy,69.1989,33.4478,281.55,87,100,4.38,RU,2024-09-17
507,homer,59.6425,-151.5483,286.09,70,0,7.72,US,2024-09-17
508,martapura,-3.4167,114.85,302.2,70,80,2.57,ID,2024-09-17
509,saudarkrokur,65.7461,-19.6394,279.24,86,100,2.0,IS,2024-09-17
510,beloyarskiy,63.7119,66.6722,285.64,97,97,1.92,RU,2024-09-17
511,guixi,28.2886,117.2133,302.59,72,100,2.0,CN,2024-09-17
512,yershov,51.3513,48.2766,290.71,53,99,3.79,RU,2024-09-17
513,grand falls-windsor,48.9332,-55.6649,291.21,88,100,6.23,CA,2024-09-17
514,kharp,66.8014,65.8081,287.51,91,100,1.93,RU,2024-09-17
515,lospalos,-8.5186,127.0025,301.38,56,26,3.6,TL,2024-09-17
516,poplar bluff,36.757,-90.3929,296.09,58,0,0.0,US,2024-09-17
517,lagunas,-5.2269,-75.6753,297.04,94,100,1.44,PE,2024-09-17
518,danjiangkou,32.5428,111.5086,299.63,65,75,1.55,CN,2024-09-17
519,kavaratti,10.5669,72.642,300.61,80,66,6.95,IN,2024-09-17
520,odda,60.0691,6.5457,279.76,91,99,0.27,NO,2024-09-17
521,orcopampa,-15.2661,-72.3417,282.36,46,13,2.1,PE,2024-09-17
522,tarakan,3.3,117.6333,301.87,79,20,3.6,ID,2024-09-17
523,bedi,22.5,70.05,299.8,71,100,4.51,IN,2024-09-17
524,puerto baquerizo moreno,-0.9,-89.6,294.35,86,81,6.0,EC,2024-09-17
525,ciudad madero,22.2667,-97.8333,301.51,83,75,1.54,MX,2024-09-17
526,balabac,7.9868,117.0645,299.86,89,100,9.78,PH,2024-09-17
527,tidjikja,18.5564,-11.4271,301.75,54,68,3.0,MR,2024-09-17
528,sinsang-ni,39.6503,127.4058,297.99,74,0,2.06,KP,2024-09-17
529,koidu,8.4167,-10.8333,294.67,99,47,0.62,SL,2024-09-17
530,mudgee,-32.5943,149.5871,289.61,44,0,1.79,AU,2024-09-17
531,happy valley-goose bay,53.3168,-60.3315,290.32,77,20,3.6,CA,2024-09-17
532,nanao,37.05,136.9667,302.54,79,35,0.32,JP,2024-09-17
533,chake chake,-5.2459,39.7666,296.2,84,17,2.88,TZ,2024-09-17
534,cambria,35.5641,-121.0808,292.17,80,0,2.68,US,2024-09-17
535,laojunmiao,39.8333,97.7333,288.23,65,0,4.17,CN,2024-09-17
536,lazaro cardenas,17.9583,-102.2,301.62,81,100,2.78,MX,2024-09-17
537,norrtalje,59.758,18.705,284.83,94,97,1.46,SE,2024-09-17
538,san pedro,14.35,121.0167,298.72,89,100,5.66,PH,2024-09-17
539,nikolayevsk-on-amure,53.1406,140.73,287.73,68,100,1.96,RU,2024-09-17
540,ixtapa,20.7,-105.2,303.72,70,75,2.06,MX,2024-09-17
541,caleta de carquin,-11.0925,-77.6267,290.21,83,0,4.27,PE,2024-09-17
542,bage,-31.3314,-54.1069,286.03,88,0,1.54,BR,2024-09-17
543,dingzhou,38.5131,114.9956,296.03,68,0,1.21,CN,2024-09-17
544,bodo,67.28,14.405,284.14,95,75,9.77,NO,2024-09-17
545,christchurch,-43.5333,172.6333,282.26,52,40,10.8,NZ,2024-09-17
546,puerto aysen,-45.4,-72.7,277.79,100,100,1.57,CL,2024-09-17
547,bargaal,11.2864,51.0773,299.5,72,77,3.34,SO,2024-09-17
548,magong,23.5654,119.5863,301.72,88,0,2.76,TW,2024-09-17
549,harlingen,26.1906,-97.6961,301.45,96,75,0.0,US,2024-09-17
550,banyo,6.75,11.8167,291.31,92,100,1.18,CM,2024-09-17
551,meulaboh,4.1363,96.1285,297.17,93,100,2.12,ID,2024-09-17
552,eyl,7.9803,49.8164,298.9,79,20,8.1,SO,2024-09-17
553,tamiahua,21.2667,-97.45,301.12,87,97,2.94,MX,2024-09-17
554,angaur state,6.906,134.13,302.23,79,100,8.36,PW,2024-09-17
555,laguna,38.421,-121.4238,295.34,50,0,2.06,US,2024-09-17
556,nouadhibou,20.931,-17.0347,294.14,88,42,5.66,MR,2024-09-17
557,belomorsk,64.5232,34.7668,282.41,65,100,2.36,RU,2024-09-17
558,cadale,2.7603,46.3222,298.28,90,23,5.88,SO,2024-09-17
